{"450070": {"name": "HONG KONG INTL", "lon": 113.915, "lat": 22.309}, "450110": {"name": "MACAU INTL", "lon": 113.592, "lat": 22.15}, "450320": {"name": "TA KWU LING", "lon": 114.15, "lat": 22.533}, "450350": {"name": "LAU FAU SHAN", "lon": 113.983, "lat": 22.467}, "450390": {"name": "SHA TIN", "lon": 114.2, "lat": 22.4}, "450440": {"name": "CHEUNG CHAU", "lon": 114.017, "lat": 22.2}, "450450": {"name": "WAGLAN ISLAND", "lon": 114.3, "lat": 22.183}, "466860": {"name": "CHIANG KAI SHEK INTL", "lon": 121.233, "lat": 25.078}, "466960": {"name": "SUNGSHAN", "lon": 121.552, "lat": 25.069}, "467400": {"name": "KAOHSIUNG INTL", "lon": 120.35, "lat": 22.577}, "467403": {"name": "FENGNIN", "lon": 121.102, "lat": 22.755}, "467430": {"name": "TAINAN", "lon": 120.206, "lat": 22.95}, "467700": {"name": "CHING CHUAN KANG AB", "lon": 120.621, "lat": 24.265}, "501360": {"name": "MOHE", "lon": 122.533, "lat": 52.967}, "503530": {"name": "HUMA", "lon": 126.633, "lat": 51.733}, "504340": {"name": "TULIHE", "lon": 121.7, "lat": 50.45}, "504680": {"name": "AIHUI", "lon": 127.45, "lat": 50.25}, "505270": {"name": "HAILAR", "lon": 119.7, "lat": 49.25}, "505480": {"name": "XIAO'ERGOU", "lon": 123.717, "lat": 49.2}, "505570": {"name": "NENJIANG", "lon": 125.233, "lat": 49.167}, "505640": {"name": "SUNWU", "lon": 127.35, "lat": 49.433}, "506030": {"name": "XIN BARAG YOUQI", "lon": 116.817, "lat": 48.683}, "506320": {"name": "BUGT", "lon": 121.917, "lat": 48.767}, "506580": {"name": "KESHAN", "lon": 125.883, "lat": 48.05}, "507270": {"name": "ARXAN", "lon": 119.933, "lat": 47.167}, "507450": {"name": "SANJIAZI", "lon": 123.918, "lat": 47.24}, "507560": {"name": "HAILUN", "lon": 126.867, "lat": 47.45}, "507740": {"name": "YICHUN", "lon": 128.833, "lat": 47.7}, "507880": {"name": "FUJIN", "lon": 131.983, "lat": 47.233}, "508440": {"name": "TAILAI", "lon": 123.45, "lat": 46.4}, "508540": {"name": "ANDA", "lon": 125.317, "lat": 46.383}, "508880": {"name": "BAOQING", "lon": 132.183, "lat": 46.317}, "509150": {"name": "ULIASTAI", "lon": 116.967, "lat": 45.517}, "509490": {"name": "QIAN GORLOS", "lon": 124.867, "lat": 45.083}, "509530": {"name": "HARBIN", "lon": 126.567, "lat": 45.933}, "509630": {"name": "TONGHE", "lon": 128.733, "lat": 45.967}, "509680": {"name": "SHANGZHI", "lon": 127.967, "lat": 45.217}, "509780": {"name": "JIXI", "lon": 130.917, "lat": 45.3}, "509830": {"name": "HULIN", "lon": 132.967, "lat": 45.767}, "510530": {"name": "KABA HE", "lon": 86.35, "lat": 48.05}, "510760": {"name": "ALTAY", "lon": 88.083, "lat": 47.733}, "510870": {"name": "FUYUN", "lon": 89.517, "lat": 46.983}, "511330": {"name": "TACHENG", "lon": 83.0, "lat": 46.733}, "511560": {"name": "HOBOKSAR", "lon": 85.75, "lat": 46.817}, "512430": {"name": "KARAMAY", "lon": 84.85, "lat": 45.6}, "512880": {"name": "BAYTIK SHAN", "lon": 90.533, "lat": 45.367}, "513340": {"name": "JINGHE", "lon": 82.817, "lat": 44.567}, "513790": {"name": "QITAI", "lon": 89.567, "lat": 44.017}, "514310": {"name": "YINING", "lon": 81.333, "lat": 43.95}, "514630": {"name": "WU LU MU QI", "lon": 87.617, "lat": 43.783}, "514635": {"name": "DIWOPU", "lon": 87.474, "lat": 43.907}, "514670": {"name": "BALGUNTAY", "lon": 86.333, "lat": 42.667}, "514950": {"name": "SHISANJIANFANG", "lon": 91.733, "lat": 43.217}, "515420": {"name": "BAYANBULAK", "lon": 84.15, "lat": 43.033}, "515730": {"name": "TURPAN", "lon": 89.233, "lat": 42.95}, "516440": {"name": "KUQA", "lon": 82.95, "lat": 41.717}, "516560": {"name": "KORLA", "lon": 85.817, "lat": 41.733}, "517090": {"name": "KASHI", "lon": 76.02, "lat": 39.543}, "517110": {"name": "AKQI", "lon": 78.45, "lat": 40.933}, "517160": {"name": "BACHU", "lon": 78.567, "lat": 39.8}, "517300": {"name": "ALAR", "lon": 81.05, "lat": 40.5}, "517470": {"name": "TAZHONG", "lon": 83.667, "lat": 39.0}, "517650": {"name": "TIKANLIK", "lon": 87.7, "lat": 40.633}, "517770": {"name": "RUOQIANG", "lon": 88.167, "lat": 39.033}, "518110": {"name": "SHACHE", "lon": 77.267, "lat": 38.433}, "518180": {"name": "PISHAN", "lon": 78.283, "lat": 37.617}, "518280": {"name": "HOTAN", "lon": 79.933, "lat": 37.133}, "518860": {"name": "MANGNAI", "lon": 90.85, "lat": 38.25}, "521120": {"name": "NAOMAOHU", "lon": 95.133, "lat": 43.6}, "522030": {"name": "HAMI", "lon": 93.517, "lat": 42.817}, "522670": {"name": "EJIN QI", "lon": 101.067, "lat": 41.95}, "523180": {"name": "HONGLIUYUAN", "lon": 95.417, "lat": 41.067}, "523230": {"name": "MAZONG SHAN", "lon": 97.033, "lat": 41.8}, "523780": {"name": "GUAIZIHU", "lon": 102.367, "lat": 41.367}, "524180": {"name": "DUNHUANG", "lon": 94.683, "lat": 40.15}, "524360": {"name": "YUMENZHEN", "lon": 97.033, "lat": 40.267}, "524950": {"name": "BAYAN MOD", "lon": 104.5, "lat": 40.75}, "525330": {"name": "JIUQUAN/SUZHOU", "lon": 98.483, "lat": 39.767}, "525331": {"name": "ZHONGCHUAN", "lon": 103.62, "lat": 36.515}, "526020": {"name": "LENGHU", "lon": 93.383, "lat": 38.833}, "526520": {"name": "ZHANGYE", "lon": 100.283, "lat": 39.083}, "526810": {"name": "MINQIN", "lon": 103.083, "lat": 38.633}, "527130": {"name": "DA-QAIDAM", "lon": 95.367, "lat": 37.85}, "527370": {"name": "DELINGHA", "lon": 97.367, "lat": 37.367}, "527540": {"name": "GANGCA", "lon": 100.133, "lat": 37.333}, "527870": {"name": "WUSHAOLING", "lon": 102.867, "lat": 37.2}, "528180": {"name": "GOLMUD", "lon": 94.9, "lat": 36.417}, "528360": {"name": "DOULAN", "lon": 98.1, "lat": 36.3}, "528660": {"name": "XINING", "lon": 101.767, "lat": 36.617}, "529080": {"name": "WUDAOLIANG", "lon": 93.083, "lat": 35.217}, "529550": {"name": "GUINAN", "lon": 100.75, "lat": 35.583}, "529830": {"name": "YU ZHONG", "lon": 104.15, "lat": 35.867}, "529960": {"name": "HUAJIALING", "lon": 105.0, "lat": 35.383}, "530680": {"name": "ERENHOT", "lon": 112.0, "lat": 43.65}, "530830": {"name": "NARAN BULAG", "lon": 114.15, "lat": 44.617}, "531490": {"name": "MANDAL", "lon": 110.133, "lat": 42.533}, "531920": {"name": "ABAG QI", "lon": 115.0, "lat": 44.017}, "532310": {"name": "HAILS", "lon": 106.383, "lat": 41.45}, "532760": {"name": "JURH", "lon": 112.9, "lat": 42.4}, "533360": {"name": "HALIUT", "lon": 108.517, "lat": 41.567}, "533520": {"name": "BAILING-MIAO", "lon": 110.433, "lat": 41.7}, "533910": {"name": "HUADE", "lon": 114.0, "lat": 41.9}, "534630": {"name": "BAITA", "lon": 111.824, "lat": 40.851}, "534800": {"name": "JINING", "lon": 113.067, "lat": 41.033}, "534870": {"name": "DATONG", "lon": 113.417, "lat": 40.083}, "535020": {"name": "JARTAI", "lon": 105.75, "lat": 39.783}, "535130": {"name": "LINHE", "lon": 107.4, "lat": 40.767}, "535290": {"name": "OTOG QI", "lon": 107.983, "lat": 39.1}, "535430": {"name": "DONGSHENG", "lon": 109.983, "lat": 39.833}, "535640": {"name": "HEQU", "lon": 111.217, "lat": 39.367}, "535880": {"name": "WUTAI SHAN", "lon": 113.517, "lat": 38.95}, "535930": {"name": "YU XIAN", "lon": 114.567, "lat": 39.833}, "536140": {"name": "YINCHUAN", "lon": 106.217, "lat": 38.483}, "536460": {"name": "YULIN", "lon": 109.783, "lat": 38.267}, "536730": {"name": "YUANPING", "lon": 112.7, "lat": 38.75}, "536980": {"name": "SHIJIAZHUANG", "lon": 114.35, "lat": 38.067}, "537050": {"name": "ZHONGNING", "lon": 105.683, "lat": 37.483}, "537230": {"name": "YANCHI", "lon": 107.383, "lat": 37.8}, "537640": {"name": "LISHI", "lon": 111.1, "lat": 37.5}, "537720": {"name": "WUSU", "lon": 112.628, "lat": 37.747}, "537870": {"name": "YUSHE", "lon": 112.983, "lat": 37.067}, "537980": {"name": "XINGTAI", "lon": 114.367, "lat": 37.183}, "538450": {"name": "YAN AN", "lon": 109.5, "lat": 36.6}, "538630": {"name": "JIEXIU", "lon": 111.917, "lat": 37.033}, "538660": {"name": "BOGUS CHINESE", "lon": 0.0, "lat": 0.0}, "538980": {"name": "ANYANG", "lon": 114.133, "lat": 36.05}, "539150": {"name": "PINGLIANG", "lon": 106.667, "lat": 35.55}, "539230": {"name": "XIFENGZHEN", "lon": 107.633, "lat": 35.733}, "539590": {"name": "YUNCHENG", "lon": 111.067, "lat": 35.117}, "539750": {"name": "YANGCHENG", "lon": 112.4, "lat": 35.483}, "540120": {"name": "XI UJIMQIN QI", "lon": 117.6, "lat": 44.583}, "540260": {"name": "JARUD QI", "lon": 120.9, "lat": 44.567}, "540270": {"name": "LINDONG", "lon": 119.4, "lat": 43.983}, "540490": {"name": "CHANGLING", "lon": 123.967, "lat": 44.25}, "540940": {"name": "MUDANJIANG", "lon": 129.667, "lat": 44.5}, "540960": {"name": "SUIFENHE", "lon": 131.15, "lat": 44.383}, "541020": {"name": "XILIN HOT", "lon": 116.117, "lat": 43.95}, "541150": {"name": "LINXI", "lon": 118.033, "lat": 43.633}, "541350": {"name": "TONGLIAO", "lon": 122.267, "lat": 43.6}, "541570": {"name": "SIPING", "lon": 124.333, "lat": 43.183}, "541610": {"name": "LONGJIA", "lon": 125.681, "lat": 43.996}, "541611": {"name": "TAIPING", "lon": 126.25, "lat": 45.623}, "541860": {"name": "DUNHUA", "lon": 128.2, "lat": 43.367}, "542080": {"name": "DUOLUN", "lon": 116.467, "lat": 42.183}, "542180": {"name": "CHIFENG", "lon": 118.833, "lat": 42.3}, "542260": {"name": "BUGT", "lon": 120.7, "lat": 42.333}, "542360": {"name": "ZHANGWU", "lon": 122.533, "lat": 42.417}, "542590": {"name": "QINGYUAN", "lon": 124.867, "lat": 42.067}, "542730": {"name": "HUADIAN", "lon": 126.75, "lat": 42.983}, "542920": {"name": "YANJI", "lon": 129.5, "lat": 42.883}, "543080": {"name": "FENGNING", "lon": 116.633, "lat": 41.2}, "543110": {"name": "WEICHANG", "lon": 117.75, "lat": 41.933}, "543240": {"name": "CHAOYANG", "lon": 120.45, "lat": 41.55}, "543370": {"name": "JINZHOU", "lon": 121.117, "lat": 41.133}, "543420": {"name": "SHENYANG", "lon": 123.517, "lat": 41.733}, "543424": {"name": "TAOXIAN", "lon": 123.483, "lat": 41.64}, "543460": {"name": "BENXI", "lon": 123.783, "lat": 41.317}, "543740": {"name": "LINJIANG", "lon": 126.917, "lat": 41.8}, "543770": {"name": "JI'AN", "lon": 126.217, "lat": 41.15}, "543860": {"name": "CHANGBAI", "lon": 128.183, "lat": 41.417}, "544010": {"name": "ZHANGJIAKOU", "lon": 114.883, "lat": 40.783}, "544050": {"name": "HUAILAI", "lon": 115.5, "lat": 40.417}, "544230": {"name": "CHENGDE", "lon": 117.917, "lat": 40.967}, "544360": {"name": "QINGLONG", "lon": 118.95, "lat": 40.4}, "544710": {"name": "YINGKOU", "lon": 122.2, "lat": 40.667}, "544930": {"name": "KUANDIAN", "lon": 124.783, "lat": 40.717}, "544970": {"name": "DANDONG", "lon": 124.333, "lat": 40.05}, "545110": {"name": "BEIJING - CAPITAL INTERNATIONAL AIRPORT", "lon": 116.585, "lat": 40.08}, "545270": {"name": "TIANJIN", "lon": 117.167, "lat": 39.1}, "545273": {"name": "BINHAI", "lon": 117.346, "lat": 39.124}, "545340": {"name": "TANGSHAN", "lon": 118.1, "lat": 39.65}, "545390": {"name": "LETING", "lon": 118.9, "lat": 39.433}, "546020": {"name": "BAODING", "lon": 115.483, "lat": 38.733}, "546180": {"name": "POTOU", "lon": 116.55, "lat": 38.083}, "546620": {"name": "ZHOUSHUIZI", "lon": 121.539, "lat": 38.966}, "547150": {"name": "LINGXIAN", "lon": 116.567, "lat": 37.333}, "547250": {"name": "HUIMIN", "lon": 117.533, "lat": 37.5}, "547510": {"name": "CHANG DAO", "lon": 120.717, "lat": 37.933}, "547530": {"name": "LONGKOU", "lon": 120.317, "lat": 37.617}, "547760": {"name": "CHENGSHANTOU", "lon": 122.683, "lat": 37.4}, "548080": {"name": "XINXIAN", "lon": 115.667, "lat": 36.233}, "548230": {"name": "JINAN/TSINAN", "lon": 116.983, "lat": 36.683}, "548260": {"name": "TAI SHAN", "lon": 117.1, "lat": 36.25}, "548360": {"name": "YIYUAN", "lon": 118.15, "lat": 36.183}, "548430": {"name": "WEIFANG", "lon": 119.183, "lat": 36.767}, "548525": {"name": "NANTONG", "lon": 120.85, "lat": 32.02}, "548570": {"name": "LIUTING", "lon": 120.374, "lat": 36.266}, "548630": {"name": "HAIYANG", "lon": 121.167, "lat": 36.767}, "549090": {"name": "DINGTAO", "lon": 115.517, "lat": 35.083}, "549160": {"name": "YANZHOU", "lon": 116.85, "lat": 35.567}, "549290": {"name": "FEZXZAN", "lon": 117.95, "lat": 35.25}, "549450": {"name": "RIZHAO", "lon": 119.533, "lat": 35.433}, "552280": {"name": "SHIQUANHE", "lon": 80.083, "lat": 32.5}, "552790": {"name": "BAINGOIN", "lon": 90.017, "lat": 31.367}, "552990": {"name": "NAGQU", "lon": 92.067, "lat": 31.483}, "554720": {"name": "XAINZA", "lon": 88.633, "lat": 30.95}, "555780": {"name": "XIGAZE", "lon": 88.883, "lat": 29.25}, "555910": {"name": "LHASA", "lon": 91.133, "lat": 29.667}, "556640": {"name": "TINGRI", "lon": 87.083, "lat": 28.633}, "556960": {"name": "LHUNZE", "lon": 92.467, "lat": 28.417}, "557730": {"name": "PAGRI", "lon": 89.083, "lat": 27.733}, "560040": {"name": "TUOTUOHE", "lon": 92.433, "lat": 34.217}, "560180": {"name": "ZADOI", "lon": 95.3, "lat": 32.9}, "560210": {"name": "QUMARLEB", "lon": 95.783, "lat": 34.133}, "560290": {"name": "YUSHU", "lon": 96.95, "lat": 33.017}, "560330": {"name": "MADOI", "lon": 98.217, "lat": 34.917}, "560460": {"name": "DARLAG", "lon": 99.65, "lat": 33.75}, "560650": {"name": "HENAN", "lon": 101.6, "lat": 34.733}, "560790": {"name": "RUO'ERGAI", "lon": 102.967, "lat": 33.583}, "560800": {"name": "HEZUO", "lon": 102.9, "lat": 35.0}, "560960": {"name": "WUDU", "lon": 104.917, "lat": 33.4}, "561060": {"name": "SOG XIAN", "lon": 93.783, "lat": 31.883}, "561160": {"name": "DENGQEN", "lon": 95.6, "lat": 31.417}, "561370": {"name": "QAMDO", "lon": 97.167, "lat": 31.15}, "561440": {"name": "DEGE", "lon": 98.567, "lat": 31.733}, "561460": {"name": "GARZE", "lon": 100.0, "lat": 31.617}, "561520": {"name": "SERTAR", "lon": 100.333, "lat": 32.283}, "561670": {"name": "DAWU", "lon": 101.117, "lat": 30.983}, "561720": {"name": "BARKAM", "lon": 102.233, "lat": 31.9}, "561820": {"name": "SONGPAN", "lon": 103.6, "lat": 32.667}, "561870": {"name": "WENJIANG", "lon": 103.867, "lat": 30.75}, "561960": {"name": "MIANYANG", "lon": 104.733, "lat": 31.45}, "562470": {"name": "BATANG", "lon": 99.1, "lat": 30.0}, "562570": {"name": "LITANG", "lon": 100.267, "lat": 30.0}, "562870": {"name": "YA'AN", "lon": 103.0, "lat": 29.983}, "562940": {"name": "SHUANGLIU", "lon": 103.947, "lat": 30.579}, "563120": {"name": "NYINGCHI", "lon": 94.467, "lat": 29.567}, "563570": {"name": "DAOCHENG", "lon": 100.3, "lat": 29.05}, "563740": {"name": "KANGDING", "lon": 101.967, "lat": 30.05}, "563850": {"name": "EMEI SHAN", "lon": 103.333, "lat": 29.517}, "564440": {"name": "DEQEN", "lon": 98.883, "lat": 28.45}, "564620": {"name": "JIULONG", "lon": 101.5, "lat": 29.0}, "564625": {"name": "DAYONG", "lon": 100.483, "lat": 29.133}, "564920": {"name": "YIBIN", "lon": 104.6, "lat": 28.8}, "565710": {"name": "XICHANG", "lon": 102.267, "lat": 27.9}, "565860": {"name": "ZHAOTONG", "lon": 103.75, "lat": 27.333}, "566510": {"name": "LIJING", "lon": 100.217, "lat": 26.833}, "566710": {"name": "HUILI", "lon": 102.25, "lat": 26.65}, "566840": {"name": "HUIZE", "lon": 103.25, "lat": 26.4}, "566910": {"name": "WEINING", "lon": 104.283, "lat": 26.867}, "567390": {"name": "TENGCHONG", "lon": 98.5, "lat": 24.983}, "567480": {"name": "BAOSHAN", "lon": 99.183, "lat": 25.117}, "567510": {"name": "DALI", "lon": 100.183, "lat": 25.7}, "567630": {"name": "YUANMOU", "lon": 101.867, "lat": 25.733}, "567680": {"name": "CHUXIONG", "lon": 101.517, "lat": 25.017}, "567780": {"name": "WUJIABA", "lon": 102.744, "lat": 24.992}, "567860": {"name": "ZHANYI", "lon": 103.833, "lat": 25.583}, "568380": {"name": "RUILI", "lon": 97.85, "lat": 24.0}, "568860": {"name": "LUXI", "lon": 103.767, "lat": 24.533}, "569460": {"name": "GENGMA", "lon": 99.4, "lat": 23.55}, "569510": {"name": "LINCANG", "lon": 100.217, "lat": 23.95}, "569540": {"name": "LANCANG", "lon": 99.933, "lat": 22.567}, "569590": {"name": "JINGHONG", "lon": 100.783, "lat": 22.0}, "569640": {"name": "SIMAO", "lon": 100.983, "lat": 22.767}, "569660": {"name": "YUANJIANG", "lon": 101.983, "lat": 23.6}, "569690": {"name": "MENGLA", "lon": 101.583, "lat": 21.5}, "569770": {"name": "JIANGCHENG", "lon": 101.817, "lat": 22.617}, "569850": {"name": "MENGZI", "lon": 103.333, "lat": 23.45}, "570140": {"name": "BEIDAO", "lon": 105.87, "lat": 34.57}, "570250": {"name": "FENGXIANG", "lon": 107.383, "lat": 34.517}, "570360": {"name": "XIANYANG", "lon": 108.752, "lat": 34.447}, "570460": {"name": "HUA SHAN", "lon": 110.083, "lat": 34.483}, "570670": {"name": "LUSHI", "lon": 111.067, "lat": 34.083}, "570710": {"name": "MENGJIN", "lon": 112.433, "lat": 34.817}, "570830": {"name": "XINZHENG", "lon": 113.841, "lat": 34.52}, "571270": {"name": "HANZHONG", "lon": 107.033, "lat": 33.067}, "571310": {"name": "JINGHE", "lon": 108.967, "lat": 34.433}, "571780": {"name": "NANYANG", "lon": 112.483, "lat": 33.1}, "571930": {"name": "XIHUA", "lon": 114.517, "lat": 33.783}, "572370": {"name": "WANYUAN", "lon": 108.033, "lat": 32.067}, "572450": {"name": "ANKANG", "lon": 109.033, "lat": 32.717}, "572590": {"name": "FANGXIAN", "lon": 110.767, "lat": 32.033}, "572650": {"name": "LAOHEKOU", "lon": 111.733, "lat": 32.433}, "572790": {"name": "ZAOYANG", "lon": 112.667, "lat": 32.15}, "572900": {"name": "ZHUMADIAN", "lon": 113.917, "lat": 32.933}, "572970": {"name": "XINYANG", "lon": 114.05, "lat": 32.133}, "573060": {"name": "LANGZHONG", "lon": 105.967, "lat": 31.583}, "573280": {"name": "DA XIAN", "lon": 107.5, "lat": 31.2}, "573480": {"name": "FENGJIE", "lon": 109.533, "lat": 31.017}, "573780": {"name": "ZHONGXIANG", "lon": 112.633, "lat": 31.167}, "573990": {"name": "MACHENG", "lon": 114.95, "lat": 31.133}, "574110": {"name": "GAOPING", "lon": 106.133, "lat": 30.75}, "574260": {"name": "LIANGPING", "lon": 107.8, "lat": 30.683}, "574470": {"name": "ENSHI", "lon": 109.467, "lat": 30.283}, "574610": {"name": "YICHANG", "lon": 111.367, "lat": 30.733}, "574760": {"name": "JIANGLING", "lon": 112.183, "lat": 30.333}, "574940": {"name": "TIANHE", "lon": 114.208, "lat": 30.784}, "574941": {"name": "SANYA PHOENIX INTL", "lon": 109.412, "lat": 18.303}, "575030": {"name": "NEIJIANG", "lon": 105.117, "lat": 29.617}, "575160": {"name": "JIANGBEI", "lon": 106.642, "lat": 29.719}, "575540": {"name": "SANGZHI", "lon": 110.167, "lat": 29.4}, "575840": {"name": "YUEYANG", "lon": 113.083, "lat": 29.383}, "575980": {"name": "XIUSHUI", "lon": 114.583, "lat": 29.033}, "576040": {"name": "NAXI", "lon": 105.383, "lat": 28.783}, "576330": {"name": "YOUYANG", "lon": 108.767, "lat": 28.833}, "576550": {"name": "YUANLING", "lon": 110.4, "lat": 28.467}, "576620": {"name": "CHANGDE", "lon": 111.683, "lat": 29.05}, "576870": {"name": "CHANGSHA", "lon": 112.783, "lat": 28.117}, "577070": {"name": "BIJIE", "lon": 105.233, "lat": 27.3}, "577120": {"name": "HUICHUAN", "lon": 106.95, "lat": 27.733}, "577310": {"name": "SINAN", "lon": 108.25, "lat": 27.95}, "577450": {"name": "ZHIJIANG", "lon": 109.683, "lat": 27.45}, "577660": {"name": "SHAOYANG", "lon": 111.45, "lat": 27.183}, "577760": {"name": "NANYUE", "lon": 112.7, "lat": 27.3}, "577930": {"name": "YICHUN", "lon": 114.383, "lat": 27.8}, "577990": {"name": "JI'AN", "lon": 114.967, "lat": 27.117}, "578160": {"name": "LONGDONGBAO", "lon": 106.801, "lat": 26.539}, "578320": {"name": "SANSUI", "lon": 108.667, "lat": 26.967}, "578450": {"name": "TONGDAO", "lon": 109.783, "lat": 26.167}, "578530": {"name": "WUGANG", "lon": 110.633, "lat": 26.733}, "578660": {"name": "LINGLING", "lon": 111.617, "lat": 26.233}, "579020": {"name": "XINGREN", "lon": 105.183, "lat": 25.433}, "579160": {"name": "LUODIAN", "lon": 106.767, "lat": 25.433}, "579220": {"name": "DUSHAN", "lon": 107.55, "lat": 25.833}, "579320": {"name": "RONGJIANG", "lon": 108.533, "lat": 25.967}, "579570": {"name": "LIANGJIANG", "lon": 110.039, "lat": 25.218}, "579720": {"name": "CHENZHOU", "lon": 112.967, "lat": 25.733}, "579930": {"name": "GANZHOU", "lon": 114.95, "lat": 25.85}, "579931": {"name": "YAOQIANG", "lon": 117.216, "lat": 36.857}, "580270": {"name": "XUZHOU", "lon": 117.15, "lat": 34.283}, "580280": {"name": "XUZHOU / GUANYIN ARPT", "lon": 117.556, "lat": 34.059}, "580400": {"name": "GANYU", "lon": 119.133, "lat": 34.85}, "581020": {"name": "BOXIAN", "lon": 115.733, "lat": 33.783}, "581410": {"name": "HUAIYIN", "lon": 118.933, "lat": 33.633}, "581500": {"name": "SHEYANG", "lon": 120.3, "lat": 33.75}, "582030": {"name": "FUYANG", "lon": 115.733, "lat": 32.867}, "582080": {"name": "GUSHI", "lon": 115.617, "lat": 32.167}, "582210": {"name": "BENGBU", "lon": 117.3, "lat": 32.85}, "582380": {"name": "LUKOU", "lon": 118.862, "lat": 31.742}, "582390": {"name": "LISHE", "lon": 121.465, "lat": 29.825}, "582510": {"name": "DONGTAI", "lon": 120.283, "lat": 32.85}, "582650": {"name": "LUSI", "lon": 121.6, "lat": 32.067}, "583140": {"name": "HUOSHAN", "lon": 116.333, "lat": 31.4}, "583210": {"name": "LUOGANG", "lon": 117.298, "lat": 31.78}, "583211": {"name": "PUDONG", "lon": 121.805, "lat": 31.143}, "583380": {"name": "WUHUXIAN", "lon": 118.583, "lat": 31.15}, "583450": {"name": "LIYANG", "lon": 119.483, "lat": 31.433}, "583620": {"name": "SHANGHAI", "lon": 121.467, "lat": 31.4}, "583670": {"name": "HONGQIAO INTL", "lon": 121.336, "lat": 31.198}, "584240": {"name": "ANQING", "lon": 116.967, "lat": 30.617}, "584370": {"name": "HUANG SHAN", "lon": 118.15, "lat": 30.133}, "584570": {"name": "XIAOSHAN", "lon": 120.432, "lat": 30.228}, "584720": {"name": "SHENGSI", "lon": 122.45, "lat": 30.733}, "584770": {"name": "DINGHAI", "lon": 122.117, "lat": 30.033}, "585060": {"name": "LU SHAN", "lon": 115.983, "lat": 29.583}, "585270": {"name": "JINGDEZHEN", "lon": 117.2, "lat": 29.3}, "585430": {"name": "CHUN AN", "lon": 119.017, "lat": 29.617}, "585560": {"name": "SHENGXIAN", "lon": 120.817, "lat": 29.6}, "585690": {"name": "SHIPU", "lon": 121.95, "lat": 29.2}, "586060": {"name": "CHANGBEI INTL", "lon": 115.9, "lat": 28.865}, "586330": {"name": "QU XIAN", "lon": 118.867, "lat": 28.967}, "586460": {"name": "LISHUI", "lon": 119.917, "lat": 28.45}, "586590": {"name": "WENZHOU", "lon": 120.667, "lat": 28.017}, "586660": {"name": "DACHEN DAO", "lon": 121.883, "lat": 28.45}, "587150": {"name": "NANCHENG", "lon": 116.65, "lat": 27.583}, "587250": {"name": "SHAOWU", "lon": 117.467, "lat": 27.333}, "587300": {"name": "WUYISHAN", "lon": 118.033, "lat": 27.767}, "587310": {"name": "PUCHENG", "lon": 118.533, "lat": 27.917}, "587520": {"name": "RUIAN", "lon": 120.65, "lat": 27.783}, "587540": {"name": "FUDING", "lon": 120.2, "lat": 27.333}, "588130": {"name": "GUANGCHANG", "lon": 116.333, "lat": 26.85}, "588340": {"name": "NANPING", "lon": 118.15, "lat": 26.633}, "588470": {"name": "FUZHOU", "lon": 119.283, "lat": 26.083}, "589110": {"name": "CHANGTING", "lon": 116.367, "lat": 25.85}, "589210": {"name": "YONG'AN", "lon": 117.35, "lat": 25.967}, "589260": {"name": "ZHANG PING", "lon": 117.4, "lat": 25.3}, "589310": {"name": "JIUXIAN SHAN", "lon": 118.1, "lat": 25.717}, "589440": {"name": "PINGTAN", "lon": 119.783, "lat": 25.517}, "589680": {"name": "TAIBEI", "lon": 121.517, "lat": 25.033}, "589740": {"name": "PENGJIA YU", "lon": 122.067, "lat": 25.633}, "590070": {"name": "GUANGNAN", "lon": 105.067, "lat": 24.067}, "590230": {"name": "HECHI", "lon": 108.05, "lat": 24.7}, "590460": {"name": "LIUZHOU", "lon": 109.4, "lat": 24.35}, "590580": {"name": "MENGSHAN", "lon": 110.517, "lat": 24.2}, "590720": {"name": "LIANZHOU", "lon": 112.367, "lat": 24.8}, "590820": {"name": "SHAOGUAN", "lon": 113.6, "lat": 24.667}, "590870": {"name": "FOGANG", "lon": 113.517, "lat": 23.883}, "590960": {"name": "LIANPING", "lon": 114.483, "lat": 24.367}, "591020": {"name": "XUNWU", "lon": 115.65, "lat": 24.95}, "591170": {"name": "MEI XIAN", "lon": 116.067, "lat": 24.283}, "591340": {"name": "GAOQI", "lon": 118.128, "lat": 24.544}, "591580": {"name": "TAIZHONG", "lon": 120.683, "lat": 24.15}, "591625": {"name": "YANCHENG", "lon": 120.2, "lat": 33.417}, "592090": {"name": "NAPO", "lon": 105.95, "lat": 23.3}, "592110": {"name": "BAISE", "lon": 106.6, "lat": 23.9}, "592540": {"name": "GUIPING", "lon": 110.083, "lat": 23.4}, "592650": {"name": "WUZHOU", "lon": 111.3, "lat": 23.483}, "592780": {"name": "GAOYAO", "lon": 112.467, "lat": 23.05}, "592870": {"name": "BAIYUN INTL", "lon": 113.299, "lat": 23.392}, "592871": {"name": "HUANGHUA", "lon": 113.22, "lat": 28.189}, "592930": {"name": "HEYUAN", "lon": 114.733, "lat": 23.8}, "593160": {"name": "SHANTOU", "lon": 116.683, "lat": 23.4}, "593580": {"name": "TAINAN", "lon": 120.217, "lat": 23.0}, "594170": {"name": "LONGZHOU", "lon": 106.75, "lat": 22.367}, "594310": {"name": "WUXU", "lon": 108.172, "lat": 22.608}, "594560": {"name": "XINYI", "lon": 110.933, "lat": 22.35}, "594930": {"name": "BAOAN INTL", "lon": 113.811, "lat": 22.639}, "595010": {"name": "SHANWEI", "lon": 115.367, "lat": 22.783}, "595590": {"name": "HENGCHUN", "lon": 120.75, "lat": 22.0}, "595620": {"name": "TAIDONG", "lon": 121.15, "lat": 22.75}, "595670": {"name": "LAN YU", "lon": 121.55, "lat": 22.033}, "596320": {"name": "QINZHOU", "lon": 108.617, "lat": 21.95}, "596440": {"name": "BEIHAI", "lon": 109.1, "lat": 21.483}, "596580": {"name": "ZHANJIANG", "lon": 110.4, "lat": 21.217}, "596630": {"name": "YANGJIANG", "lon": 111.967, "lat": 21.867}, "596730": {"name": "SHANGCHUAN DAO", "lon": 112.767, "lat": 21.733}, "597580": {"name": "HAIKOU", "lon": 110.25, "lat": 20.0}, "597920": {"name": "DONGSHA DAO", "lon": 116.717, "lat": 20.667}, "598380": {"name": "DONGFANG", "lon": 108.617, "lat": 19.1}, "598450": {"name": "DANXIAN", "lon": 109.583, "lat": 19.517}, "598550": {"name": "QIONGHAI", "lon": 110.467, "lat": 19.233}, "599480": {"name": "SANYA", "lon": 109.583, "lat": 18.217}, "599810": {"name": "XISHA DAO", "lon": 112.333, "lat": 16.833}, "599850": {"name": "SANHU DAO", "lon": 111.617, "lat": 16.533}, "599970": {"name": "NANSHA DAO", "lon": 114.367, "lat": 10.383}}